id,navn,fylke,kommune,addresse,aapningstider,lat,lon,url,sistEndret
66296,Furulund,Østfold,Aremark,1798 Aremark,"13.09.2015: kl 14:00-19:00, 14.09.2015: kl 09:00-19:00",59.246208,11.682766,http://valglokaler.no/valglokale/furulund/,2015-06-30
66299,Askim rådhus,Østfold,Askim,"Skolegata 12, 1830 Askim",14.09.2015: kl 09:00-21:00,59.584476,11.1609456,http://valglokaler.no/valglokale/askim-radhus/,2015-06-30
66302,Eidsberghallen,Østfold,Eidsberg,"Smedgata 19, 1850 Mysen","13.09.2015: kl 14:00-18:00, 14.09.2015: kl 10:00-21:00",59.554243,11.333685,http://valglokaler.no/valglokale/eidsberghallen/,2015-06-30
66303,Cicignon skole,Østfold,Fredrikstad,"Skolegt. 2, 1606 Fredrikstad","13.09.2015: kl 16:00-20:00, 14.09.2015: kl 09:00-20:00",59.207175,10.951024,http://valglokaler.no/valglokale/cicignon-skole/,2015-06-30
66304,Trosvik skole,Østfold,Fredrikstad,"Unnebergveien 19, 1613 Fredrikstad","13.09.2015: kl 16:00-20:00, 14.09.2015: kl 09:00-20:00",59.226084,10.926395,http://valglokaler.no/valglokale/trosvik-skole/,2015-06-30
66305,Tidl.rådhuset i Rolvsøy,Østfold,Fredrikstad,"Råkollveien 103, 1664 Rolvsøy","13.09.2015: kl 16:00-20:00, 14.09.2015: kl 09:00-20:00",59.266623,11.004585,http://valglokaler.no/valglokale/tidl-radhuset-i-rolvsoy/,2015-06-30
66306,Torsnes skole,Østfold,Fredrikstad,"Toresvei 2, 1634 Gamle Fredrikstad","13.09.2015: kl 16:00-20:00, 14.09.2015: kl 09:00-20:00",59.186261,11.049573,http://valglokaler.no/valglokale/torsnes-skole/,2015-06-30
66307,Vestbygda skole,Østfold,Fredrikstad,"Lervikveien 9, 1626 Manstad","13.09.2015: kl 16:00-20:00, 14.09.2015: kl 09:00-20:00",59.266271,10.773128,http://valglokaler.no/valglokale/vestbygda-skole/,2015-06-30
66308,Rød skole,Østfold,Fredrikstad,"Aaserudveien 17, 1621 Gressvik","13.09.2015: kl 16:00-20:00, 14.09.2015: kl 09:00-20:00",59.207286,10.884302,http://valglokaler.no/valglokale/rod-skole/,2015-06-30
66309,Borge skole,Østfold,Fredrikstad,"Grimstadveien 3, 1655 Sellebakk","13.09.2015: kl 16:00-20:00, 14.09.2015: kl 09:00-20:00",59.225072,11.046642,http://valglokaler.no/valglokale/borge-skole/,2015-06-30
66310,Årum skole,Østfold,Fredrikstad,"Kilevoldveien 22B, 1659 Torp","13.09.2015: kl 16:00-20:00, 14.09.2015: kl 09:00-20:00",59.261680,11.092718,http://valglokaler.no/valglokale/arum-skole/,2015-06-30
66312,Sagabakken skole,Østfold,Fredrikstad,"Lundheim Alle 1, 1636 Gamle Fredrikstad","13.09.2015: kl 16:00-20:00, 14.09.2015: kl 09:00-20:00",59.218214,10.984319,http://valglokaler.no/valglokale/sagabakken-skole/,2015-06-30
66313,Trara skole,Østfold,Fredrikstad,"Glemmengt. 70, 1605 Fredrikstad","13.09.2015: kl 16:00-20:00, 14.09.2015: kl 09:00-20:00",59.219454,10.938978,http://valglokaler.no/valglokale/trara-skole/,2015-06-30
66314,Rød skole,Østfold,Fredrikstad,"Dueveien 2, 1679 Kråkerøy","13.09.2015: kl 16:00-20:00, 14.09.2015: kl 09:00-20:00",59.195190,10.910460,http://valglokaler.no/valglokale/rod-skole-2/,2015-06-30
66315,Begby skole,Østfold,Fredrikstad,"Smaragdveien 4, 1639 Gamle Fredrikstad","13.09.2015: kl 16:00-20:00, 14.09.2015: kl 09:00-20:00",59.215655,11.010151,http://valglokaler.no/valglokale/begby-skole/,2015-06-30
66316,Nylende skole,Østfold,Fredrikstad,"Ringstadbakken 15, 1667 Rolvsøy","13.09.2015: kl 16:00-20:00, 14.09.2015: kl 09:00-20:00",59.303570,10.974974,http://valglokaler.no/valglokale/nylende-skole/,2015-06-30
66317,Borgehallen,Østfold,Fredrikstad,"Borgeveien 48, 1653 Sellebakk","13.09.2015: kl 16:00-20:00, 14.09.2015: kl 09:00-20:00",59.230747,11.001963,http://valglokaler.no/valglokale/borgehallen/,2015-06-30
66318,Gressvikhallen,Østfold,Fredrikstad,"Granliveien 18 B, 1621 Gressvik","13.09.2015: kl 16:00-20:00, 14.09.2015: kl 09:00-20:00",59.226310,10.900697,http://valglokaler.no/valglokale/gressvikhallen/,2015-06-30
66319,Lisleby Samfunnshus,Østfold,Fredrikstad,"Ole Hansensvei 9, 1619 Fredrikstad","13.09.2015: kl 16:00-20:00, 14.09.2015: kl 09:00-20:00",59.232024,10.972291,http://valglokaler.no/valglokale/lisleby-samfunnshus/,2015-06-30
66320,Lunde skole,Østfold,Fredrikstad,"Lundebuen 14, 1676 Kråkerøy","13.09.2015: kl 16:00-20:00, 14.09.2015: kl 09:00-20:00",59.161825,10.932277,http://valglokaler.no/valglokale/lunde-skole/,2015-06-30
66321,Bøndernes hus,Østfold,Fredrikstad,"Kolbergveien 5, 1621 Gressvik","13.09.2015: kl 16:00-20:00, 14.09.2015: kl 09:00-20:00",59.256384,10.853758,http://valglokaler.no/valglokale/bondernes-hus/,2015-06-30
66322,Konservativen,Østfold,Halden,"Øvre Bankegt 5, 1771 Halden","13.09.2015: kl 16:00-20:00, 14.09.2015: kl 09:00-20:00",59.122831,11.383842,http://valglokaler.no/valglokale/konservativen/,2015-06-30
66325,Låby skole – gymsalen,Østfold,Halden,"Likollvn 29, 1781 Halden","13.09.2015: kl 16:00-20:00, 14.09.2015: kl 09:00-20:00",59.130709,11.364895,http://valglokaler.no/valglokale/laby-skole-gymsalen/,2015-06-30
66326,Hjortsberghallen,Østfold,Halden,"BRAvn 67, 1784 Halden","13.09.2015: kl 16:00-20:00, 14.09.2015: kl 09:00-20:00",59.141354,11.382329,http://valglokaler.no/valglokale/hjortsberghallen/,2015-06-30
66327,Frelsesarméen Tistedal,Østfold,Halden,"Skolegt 11, 1792 Tistedal","13.09.2015: kl 16:00-20:00, 14.09.2015: kl 09:00-20:00",59.125677,11.443961,http://valglokaler.no/valglokale/frelsesarmeen-tistedal/,2015-06-30
66328,Berg skole,Østfold,Halden,"Sørlivn 111, 1788 Berg i Østfold","13.09.2015: kl 16:00-20:00, 14.09.2015: kl 09:00-20:00",59.124565,11.298741,http://valglokaler.no/valglokale/berg-skole/,2015-06-30
66329,Risum ungdomsskole – gymsalen,Østfold,Halden,"Kommandantvn 37, 1769 Halden","13.09.2015: kl 16:00-20:00, 14.09.2015: kl 09:00-20:00",59.114874,11.406062,http://valglokaler.no/valglokale/risum-ungdomsskole-gymsalen/,2015-06-30
66330,Prestebakke samfunnshus,Østfold,Halden,1796 Kornsjø,"13.09.2015: kl 16:00-20:00, 14.09.2015: kl 09:00-20:00",58.990735,11.539872,http://valglokaler.no/valglokale/prestebakke-samfunnshus/,2015-06-30
66331,Ringvoll skole,Østfold,Hobøl,"Trollveien 16, 1827 Hobøl",14.09.2015: kl 09:00-21:00,59.556701,10.844691,http://valglokaler.no/valglokale/ringvoll-skole/,2015-06-30
66332,Tomter skole,Østfold,Hobøl,"Engen 4, 1825 Tomter",14.09.2015: kl 09:00-21:00,59.658081,11.003362,http://valglokaler.no/valglokale/tomter-skole/,2015-06-30
66334,Knapstad skole,Østfold,Hobøl,"Skoleveien 17, 1823 Knapstad",14.09.2015: kl 09:00-21:00,59.625479,11.023945,http://valglokaler.no/valglokale/knapstad-skole/,2015-06-30
66337,Åttekanten skole,Østfold,Hvaler,1684 Vesterøy,"13.09.2015: kl 15:00-20:00, 14.09.2015: kl 15:00-20:00",59.103524,10.873855,http://valglokaler.no/valglokale/attekanten-skole/,2015-06-30
66338,Floren skole,Østfold,Hvaler,1680 Skjærhalden,"13.09.2015: kl 15:00-20:00, 14.09.2015: kl 15:00-20:00",59.029103,11.031733,http://valglokaler.no/valglokale/floren-skole/,2015-06-30
66341,Marker Rådhus,Østfold,Marker,"Storgata 60, 1870 Ørje","13.09.2015: kl 14:00-18:00, 14.09.2015: kl 08:00-20:00",59.479833,11.659087,http://valglokaler.no/valglokale/marker-radhus/,2015-06-30
66342,Åvangen skole,Østfold,Moss,"Skredderveien 100, 1537 Moss",14.09.2015: kl 08:00-21:00,59.459013,10.696692,http://valglokaler.no/valglokale/avangen-skole/,2015-06-30
66343,Krapfoss skole,Østfold,Moss,"Anton Krogsvoldsvei 4, 1597 Moss",14.09.2015: kl 08:00-21:00,59.432987,10.681651,http://valglokaler.no/valglokale/krapfoss-skole/,2015-06-30
66344,Refsnes skole,Østfold,Moss,"Refsnesalleen 36, 1518 Moss",14.09.2015: kl 08:00-21:00,59.443068,10.620003,http://valglokaler.no/valglokale/refsnes-skole/,2015-06-30
66345,Samfunsshuset,Østfold,Moss,"Kirkegata 15, 1531 Moss",14.09.2015: kl 08:00-21:00,59.434427,10.659099,http://valglokaler.no/valglokale/samfunsshuset/,2015-06-30
66346,Ramberg skole,Østfold,Moss,"Bjerkealleen 34, 1512 Moss",14.09.2015: kl 08:00-21:00,59.442413,10.628157,http://valglokaler.no/valglokale/ramberg-skole/,2015-06-30
66347,Reier skole,Østfold,Moss,"Brageveien 9, 1517 Moss",14.09.2015: kl 08:00-21:00,59.426962,10.632191,http://valglokaler.no/valglokale/reier-skole/,2015-06-30
66349,Verket skole,Østfold,Moss,"Osloveien 25, 1534 Moss",14.09.2015: kl 08:00-21:00,59.445391,10.678689,http://valglokaler.no/valglokale/verket-skole/,2015-06-30
66350,Melløs skole,Østfold,Moss,"Roald Amundsensgt. 2, 1524 Moss",14.09.2015: kl 08:00-21:00,59.421374,10.66678,http://valglokaler.no/valglokale/mellos-skole/,2015-06-30
66351,Bøndernes Hus,Østfold,Råde,"Mosseveien 6, 1640 Råde","13.09.2015: kl 15:00-18:00, 14.09.2015: kl 09:00-21:00",59.352461,10.87241,http://valglokaler.no/valglokale/bondernes-hus-2/,2015-06-30
66354,Spetalen skole,Østfold,Råde,"Andersrødveien 3, 1642 Saltnes","13.09.2015: kl 15:00-18:00, 14.09.2015: kl 09:00-21:00",59.297548,10.768046,http://valglokaler.no/valglokale/spetalen-skole/,2015-08-24
66356,Rakkestad kulturhus – Festsalen,Østfold,Rakkestad,"Rådhusveien 8, 1890 Rakkestad","13.09.2015: kl 16:00-20:00, 14.09.2015: kl 10:00-21:00",59.428166,11.342719,http://valglokaler.no/valglokale/rakkestad-kulturhus-festsalen/,2015-06-30
66359,Degerneshallen,Østfold,Rakkestad,"Idrettsveien 8, 1892 Degernes","13.09.2015: kl 16:00-20:00, 14.09.2015: kl 10:00-21:00",59.35666,11.42305,http://valglokaler.no/valglokale/degerneshallen/,2015-06-30
66361,Rømskog kommunehus,Østfold,Rømskog,"Engehaget, 1950 RØMSKOG","13.09.2015: kl 13:00-16:00, 14.09.2015: kl 08:00-16:00",59.749588,11.810756,http://valglokaler.no/valglokale/romskog-kommunehus/,2015-06-30
66362,Halmstad barneskole,Østfold,Rygge,"Skoleveien 4, 1580 Rygge",14.09.2015: kl 09:00-21:00,59.380806,10.744449,http://valglokaler.no/valglokale/halmstad-barneskole/,2015-06-30
66363,Vang skole,Østfold,Rygge,"Vesteråsveien 45, 1570 Dilling",14.09.2015: kl 09:00-21:00,59.382857,10.689805,http://valglokaler.no/valglokale/vang-skole/,2015-06-30
66365,Larkollen skole,Østfold,Rygge,"Støtvigveien 59, 1560 Larkollen",14.09.2015: kl 09:00-21:00,59.333028,10.671802,http://valglokaler.no/valglokale/larkollen-skole/,2015-06-30
66366,Øreåshallen,Østfold,Rygge,"Øreåsveien 9, 1528 Moss",14.09.2015: kl 09:00-21:00,59.419955,10.692852,http://valglokaler.no/valglokale/oreashallen/,2015-06-30
66367,Ekholt barneskole,Østfold,Rygge,"Ekholtveien 69, 1526 Moss",14.09.2015: kl 09:00-21:00,59.41109,10.679054,http://valglokaler.no/valglokale/ekholt-barneskole/,2015-06-30
66368,Hafslundsøy skole – gymsalen,Østfold,Sarpsborg,"Hagastuveien 60, 1734 Hafslundsøy","13.09.2015: kl 12:00-18:00, 14.09.2015: kl 10:00-21:00",59.285795,11.146252,http://valglokaler.no/valglokale/hafslundsoy-skole-gymsalen/,2015-06-30
66369,Skjeberg adm.bygg,Østfold,Sarpsborg,"Rådhusveien 17, 1739 Borgenhaugen","13.09.2015: kl 12:00-18:00, 14.09.2015: kl 10:00-21:00",59.266915,11.169523,http://valglokaler.no/valglokale/skjeberg-adm-bygg/,2015-06-30
66370,Lande bosenter,Østfold,Sarpsborg,"Råkilveien 35, 1710 Sarpsborg","13.09.2015: kl 12:00-18:00, 14.09.2015: kl 10:00-21:00",59.294802,11.102157,http://valglokaler.no/valglokale/lande-bosenter/,2015-06-30
66371,Tindlundhallen,Østfold,Sarpsborg,"Myrstadveien 2, 1718 Greåker","13.09.2015: kl 12:00-18:00, 14.09.2015: kl 10:00-21:00",59.268266,11.04597,http://valglokaler.no/valglokale/tindlundhallen/,2015-06-30
66372,Ullerøy skole,Østfold,Sarpsborg,"Røaveien 461, 1747 Skjeberg","13.09.2015: kl 12:00-18:00, 14.09.2015: kl 10:00-21:00",59.166192,11.14497,http://valglokaler.no/valglokale/ulleroy-skole/,2015-06-30
66373,Alvimhaugen skole bibl.,Østfold,Sarpsborg,"Utsiktsveien 35, 1725 Sarpsborg","13.09.2015: kl 12:00-18:00, 14.09.2015: kl 10:00-21:00",59.271517,11.088177,http://valglokaler.no/valglokale/alvimhaugen-skole-bibl/,2015-06-30
66374,Sarpsborg rådhus,Østfold,Sarpsborg,"Glengsgata 38, 1706 Sarpsborg","13.09.2015: kl 12:00-18:00, 14.09.2015: kl 10:00-21:00",59.281498,11.111609,http://valglokaler.no/valglokale/sarpsborg-radhus/,2015-06-30
66375,Sandbakken skole gymsal,Østfold,Sarpsborg,"Skjebergveien 165, 1743 Klavestadhaugen","13.09.2015: kl 12:00-18:00, 14.09.2015: kl 10:00-21:00",59.248075,11.180145,http://valglokaler.no/valglokale/sandbakken-skole-gymsal/,2015-06-30
66376,Grålum barneskole – teorirom ved Grålumhallen,Østfold,Sarpsborg,"Grålumveien 203, 1712 Grålum","13.09.2015: kl 12:00-18:00, 14.09.2015: kl 10:00-21:00",59.291101,11.05885,http://valglokaler.no/valglokale/gralum-barneskole-teorirom-ved-gralumhallen/,2015-06-30
66377,Hafslund barneskole – gymsalen,Østfold,Sarpsborg,"Ryesvei 3, 1738 Borgenhaugen","13.09.2015: kl 12:00-18:00, 14.09.2015: kl 10:00-21:00",59.271681,11.142282,http://valglokaler.no/valglokale/hafslund-barneskole-gymsalen/,2015-06-30
66379,Kurland skole gymsalen,Østfold,Sarpsborg,"Per Gyntveien 7, 1709 Sarpsborg","13.09.2015: kl 12:00-18:00, 14.09.2015: kl 10:00-21:00",59.294912,11.110557,http://valglokaler.no/valglokale/kurland-skole-gymsalen/,2015-06-30
66381,Hornnes skole gymsal,Østfold,Sarpsborg,"Skolebakken 5, 1746 Skjeberg","13.09.2015: kl 12:00-18:00, 14.09.2015: kl 10:00-21:00",59.208645,11.192837,http://valglokaler.no/valglokale/hornnes-skole-gymsal/,2015-06-30
66382,Bygdehallen,Østfold,Sarpsborg,"Ingaveien 31, 1735 Varteig","13.09.2015: kl 12:00-18:00, 14.09.2015: kl 10:00-21:00",59.350844,11.182966,http://valglokaler.no/valglokale/bygdehallen/,2015-06-30
66384,Jelsnes skole – gymsalen,Østfold,Sarpsborg,"Jelsnesveien 820, 1708 Sarpsborg","13.09.2015: kl 12:00-18:00, 14.09.2015: kl 10:00-21:00",59.375212,11.165199,http://valglokaler.no/valglokale/jelsnes-skole-gymsalen/,2015-06-30
66385,Skiptvet Kommunehus,Østfold,Skiptvet,"Storveien 28, 1816 Skiptvet","13.09.2015: kl 14:00-18:00, 14.09.2015: kl 10:00-21:00",59.477752,11.161809,http://valglokaler.no/valglokale/skiptvet-kommunehus/,2015-06-30
66389,Fjellheim,Østfold,Spydeberg,"Stasjonsgata 35, 1820 Spydeberg","13.09.2015: kl 16:00-21:00, 14.09.2015: kl 09:00-21:00",59.620265,11.080399,http://valglokaler.no/valglokale/fjellheim/,2015-06-30
66390,Kommunehuset,Østfold,Trøgstad,"Kirkeveien 17, 1860 Trøgstad","13.09.2015: kl 14:00-18:00, 14.09.2015: kl 10:00-20:00",59.641387,11.315253,http://valglokaler.no/valglokale/kommunehuset/,2015-06-30
66394,Fredheim,Østfold,Våler,1593 Svinndal,14.09.2015: kl 10:00-21:00,59.425872,11.008917,http://valglokaler.no/valglokale/fredheim/,2015-08-11
66395,Våler Herredshus,Østfold,Våler,"Kjosveien 1, 1592 Våler",14.09.2015: kl 10:00-21:00,59.488656,10.865408,http://valglokaler.no/valglokale/valer-herredshus/,2015-06-30
66396,Våk skole,Østfold,Våler,"Karl Toverudsvei 10, 1591 Sperrebotn",14.09.2015: kl 10:00-21:00,59.461402,10.79923,http://valglokaler.no/valglokale/vak-skole/,2015-06-30
66398,Brønnerud skole,Akershus,Ås,"Gymsalen,Drøbakveien 63, 1430 Ås","13.09.2015: kl 16:00-20:00, 14.09.2015: kl 09:00-21:00",59.664109,10.750762,http://valglokaler.no/valglokale/bronnerud-skole/,2015-06-30
66399,Nordbytun ungdomsskole,Akershus,Ås,"Aulaen,Emily Kirkeruds vei 6, 1407 Vinterbro","13.09.2015: kl 16:00-20:00, 14.09.2015: kl 09:00-21:00",59.725477,10.763808,http://valglokaler.no/valglokale/nordbytun-ungdomsskole/,2015-06-30
66400,Rustad skole,Akershus,Ås,"Gymsalen,Drottveien 20, 1430 Ås","13.09.2015: kl 16:00-20:00, 14.09.2015: kl 09:00-21:00",59.666332,10.811550,http://valglokaler.no/valglokale/rustad-skole/,2015-06-30
66403,Ås kulturhus,Akershus,Ås,"Kinofoajeen,Moerveien 1, 1430 Ås","13.09.2015: kl 16:00-20:00, 14.09.2015: kl 09:00-21:00",59.664133,10.791094,http://valglokaler.no/valglokale/as-kulturhus/,2015-06-30
66404,Granheimtunet,Akershus,Ås,"Nordby eldresenter,Granheimtunet 3, 1406 Ski","13.09.2015: kl 16:00-20:00, 14.09.2015: kl 09:00-21:00",59.719030,10.801017,http://valglokaler.no/valglokale/granheimtunet/,2015-06-30
66405,Kroer skole,Akershus,Ås,"Gymsalen,Vollholen 39, 1430 Ås","13.09.2015: kl 16:00-20:00, 14.09.2015: kl 09:00-21:00",59.633054,10.848331,http://valglokaler.no/valglokale/kroer-skole/,2015-06-30
66406,Solvang ungdomsskole,Akershus,Asker,"Solvangveien 32, 1383 Asker",14.09.2015: kl 09:00-21:00,59.839955,10.424997,http://valglokaler.no/valglokale/solvang-ungdomsskole/,2015-06-30
66408,Vollen ungdomsskole,Akershus,Asker,"Håkavikveien 45, 1390 Vollen",14.09.2015: kl 09:00-21:00,59.801059,10.489559,http://valglokaler.no/valglokale/vollen-ungdomsskole/,2015-06-30
66409,Nesbru videregående skole,Akershus,Asker,"Halvard Torgersens vei 8, 1396 Billingstad",14.09.2015: kl 09:00-21:00,59.867202,10.485277,http://valglokaler.no/valglokale/nesbru-videregaende-skole/,2015-06-30
66410,Borgen ungdomsskole,Akershus,Asker,"Vardefaret 4, 1388 Borgen",14.09.2015: kl 09:00-21:00,59.826575,10.419623,http://valglokaler.no/valglokale/borgen-ungdomsskole/,2015-07-02
66411,Hofstad barneskole,Akershus,Asker,"Hofstadgata 14, 1384 Asker",14.09.2015: kl 09:00-21:00,59.848033,10.472482,http://valglokaler.no/valglokale/hofstad-barneskole/,2015-06-30
66412,Leikvollhallen,Akershus,Asker,"Brages vei 5, 1387 Asker",14.09.2015: kl 09:00-21:00,59.825198,10.443151,http://valglokaler.no/valglokale/leikvollhallen/,2015-06-30
66413,Nesøya barneskole,Akershus,Asker,"Rosenkrantz vei 40, 1397 Nesøya",14.09.2015: kl 09:00-21:00,59.869417,10.517779,http://valglokaler.no/valglokale/nesoya-barneskole/,2015-06-30
66414,Hovedgården ungdomsskole,Akershus,Asker,"Heggedalsbakken 11, 1389 Heggedal",14.09.2015: kl 09:00-21:00,59.784978,10.436285,http://valglokaler.no/valglokale/hovedgarden-ungdomsskole/,2015-06-30
66416,Bjørkelangen sportshall,Akershus,Aurskog-Høland,"Haldenveien 45, 1940 Bjørkelangen","13.09.2015: kl 16:00-20:00, 14.09.2015: kl 12:00-21:00",59.883106,11.559809,http://valglokaler.no/valglokale/bjorkelangen-sportshall/,2015-07-06
66417,Leikvin,Akershus,Aurskog-Høland,"Løkenalleen 1, 1960 Løken","13.09.2015: kl 16:00-20:00, 14.09.2015: kl 12:00-21:00",,,http://valglokaler.no/valglokale/leikvin/,2015-06-30
66418,Haneborg skole,Akershus,Aurskog-Høland,"Nordre Mangen vei 27, 1930 Aurskog","13.09.2015: kl 16:00-20:00, 14.09.2015: kl 12:00-21:00",,,http://valglokaler.no/valglokale/haneborg-skole/,2015-06-30
66419,Gamle biblioteket,Akershus,Aurskog-Høland,"Tønnebergveien 2, 1970 Hemnes","13.09.2015: kl 16:00-20:00, 14.09.2015: kl 12:00-21:00",,,http://valglokaler.no/valglokale/gamle-biblioteket/,2015-06-30
66420,Setskog oppvekstsenter,Akershus,Aurskog-Høland,"Mosebyveien 4, 1954 Setskog","13.09.2015: kl 16:00-20:00, 14.09.2015: kl 12:00-21:00",,,http://valglokaler.no/valglokale/setskog-oppvekstsenter/,2015-06-30
66421,Aurskoghallen,Akershus,Aurskog-Høland,"Aurveien 41, 1930 Aurskog","13.09.2015: kl 16:00-20:00, 14.09.2015: kl 12:00-21:00",,,http://valglokaler.no/valglokale/aurskoghallen/,2015-06-30
66422,Hosle skole,Akershus,Bærum,"Bispeveien 73, 1362 Hosle",14.09.2015: kl 09:00-21:00,59.934306,10.584579,http://valglokaler.no/valglokale/hosle-skole/,2015-06-30
66424,Skui skole,Akershus,Bærum,"Ringeriksveien 242, 1340 Skui",14.09.2015: kl 09:00-21:00,59.927620,10.447796,http://valglokaler.no/valglokale/skui-skole/,2015-06-30
66426,Bryn skole,Akershus,Bærum,"Bryn skolevei 7, 1348 Rykkinn",14.09.2015: kl 09:00-21:00,59.920720,10.495507,http://valglokaler.no/valglokale/bryn-skole/,2015-06-30
66427,Levre skole,Akershus,Bærum,"Levre skolevei 6, 1346 Gjettum",,59.906694,10.510483,http://valglokaler.no/valglokale/levre-skole/,2015-06-30
66428,Jong skole,Akershus,Bærum,"Jongssvingen 5, 1337 Sandvika",14.09.2015: kl 09:00-21:00,59.887592,10.510142,http://valglokaler.no/valglokale/jong-skole/,2015-06-30
66429,Tanum skole,Akershus,Bærum,"Tanumveien 69, 1341 Slependen",14.09.2015: kl 09:00-21:00,59.885500,10.476921,http://valglokaler.no/valglokale/tanum-skole/,2015-06-30
66430,Stabekk videregående skole,Akershus,Bærum,"Gml. Drammensvei 15, 1369 Stabekk",14.09.2015: kl 09:00-21:00,59.910196,10.617239,http://valglokaler.no/valglokale/stabekk-videregaende-skole/,2015-06-30
66431,Løkeberg skole,Akershus,Bærum,"Bærumsveien 340, 1344 Haslum",14.09.2015: kl 09:00-21:00,59.909902,10.547647,http://valglokaler.no/valglokale/lokeberg-skole/,2015-06-30
66432,Rykkinn skole avd. Gommerud,Akershus,Bærum,"Stian Kristensens vei 114, 1348 Rykkinn",14.09.2015: kl 09:00-21:00,59.930165,10.481538,http://valglokaler.no/valglokale/rykkinn-skole-avd-gommerud/,2015-06-30
66433,Storøya grendesenter,Akershus,Bærum,"Forneburingen 300, 1364 Fornebu",14.09.2015: kl 09:00-21:00,59.894419,10.611160,http://valglokaler.no/valglokale/storoya-grendesenter/,2015-06-30
66434,Høvik skole,Akershus,Bærum,"Gamle Drammens vei 119, 1363 Høvik",14.09.2015: kl 09:00-21:00,59.902485,10.572033,http://valglokaler.no/valglokale/hovik-skole/,2015-06-30
66435,Bekkestua bibliotek,Akershus,Bærum,"Gamle Ringeriksvei 44, 1357 Bekkestua",14.09.2015: kl 09:00-21:00,59.917912,10.584714,http://valglokaler.no/valglokale/bekkestua-bibliotek/,2015-06-30
66436,Sandvika videregående skole,Akershus,Bærum,"Elias Smiths vei 15, 1337 Sandvika",14.09.2015: kl 09:00-21:00,59.893426,10.517885,http://valglokaler.no/valglokale/sandvika-videregaende-skole/,2015-06-30
66437,Grav skole,Akershus,Bærum,"Hosleveien 24, 1358 Jar",14.09.2015: kl 09:00-21:00,59.928443,10.608915,http://valglokaler.no/valglokale/grav-skole/,2015-06-30
66439,Eiksmarka skole,Akershus,Bærum,"Niels Leuchs vei 56, 1359 Eiksmarka",14.09.2015: kl 09:00-21:00,59.948172,10.623712,http://valglokaler.no/valglokale/eiksmarka-skole/,2015-06-30
66440,Lesterud skole,Akershus,Bærum,"Grorudenga 1, 1350 Lommedalen",14.09.2015: kl 09:00-21:00,59.949236,10.512257,http://valglokaler.no/valglokale/lesterud-skole/,2015-06-30
66441,Fløygir ungdomslokale,Akershus,Eidsvoll,"Bamrudvegen 5, 2093 Feiring","13.09.2015: kl 16:00-20:00, 14.09.2015: kl 10:00-20:00",60.482820,11.154569,http://valglokaler.no/valglokale/floygir-ungdomslokale/,2015-06-30
66445,Råholt skole,Akershus,Eidsvoll,"Martin Johansens veg 85, 2070 Råholt","13.09.2015: kl 16:00-20:00, 14.09.2015: kl 10:00-20:00",60.273762,11.188427,http://valglokaler.no/valglokale/raholt-skole/,2015-06-30
66446,Finstad skole,Akershus,Eidsvoll,"Løkenvegen 6, 2080 Eidsvoll","13.09.2015: kl 16:00-20:00, 14.09.2015: kl 10:00-20:00",60.28677,11.241117,http://valglokaler.no/valglokale/finstad-skole/,2015-06-30
66447,Langset skole,Akershus,Eidsvoll,"Dorrvegen 16, 2092 Minnesund","13.09.2015: kl 16:00-20:00, 14.09.2015: kl 10:00-20:00",60.403379,11.240129,http://valglokaler.no/valglokale/langset-skole/,2015-06-30
66448,Ås skole,Akershus,Eidsvoll,"Eidsvollvegen 11, 2080 Eidsvoll","13.09.2015: kl 16:00-20:00, 14.09.2015: kl 10:00-20:00",60.329684,11.215147,http://valglokaler.no/valglokale/as-skole/,2015-06-30
66449,Vilberg skole,Akershus,Eidsvoll,"Tynsåkvegen 2, 2080 Eidsvoll","13.09.2015: kl 16:00-20:00, 14.09.2015: kl 10:00-20:00",60.332008,11.261394,http://valglokaler.no/valglokale/vilberg-skole/,2015-06-30
66450,Eidsvoll Verk skole,Akershus,Eidsvoll,"Furulundsgutua 8, 2074 Eidsvoll Verk","13.09.2015: kl 16:00-20:00, 14.09.2015: kl 10:00-20:00",60.293966,11.158794,http://valglokaler.no/valglokale/eidsvoll-verk-skole/,2015-06-30
66451,Dal skole,Akershus,Eidsvoll,"Hjeravegen 5, 2072 Dal","13.09.2015: kl 16:00-20:00, 14.09.2015: kl 10:00-20:00",60.254075,11.200926,http://valglokaler.no/valglokale/dal-skole/,2015-06-30
66452,Mjærhallen,Akershus,Enebakk,"Lillestrømveien 31, 1914 Ytre Enebakk","13.09.2015: kl 13:00-18:00, 14.09.2015: kl 09:00-21:00",59.724800,11.059800,http://valglokaler.no/valglokale/mjaerhallen/,2015-06-30
66453,Enebakk herredshus,Akershus,Enebakk,"Prestegårdsveien 4, 1912 Enebakk","13.09.2015: kl 13:00-18:00, 14.09.2015: kl 09:00-21:00",59.764200,11.144800,http://valglokaler.no/valglokale/enebakk-herredshus/,2015-06-30
66455,Flateby samfunnshus,Akershus,Enebakk,"Borgengrenda 1, 1911 Flateby","13.09.2015: kl 13:00-18:00, 14.09.2015: kl 09:00-21:00",59.830950,11.154200,http://valglokaler.no/valglokale/flateby-samfunnshus/,2015-06-30
66456,Hovinhøgda skole,Akershus,Fet,"Garderveien 2, 1900 Fetsund","13.09.2015: kl 16:00-20:00, 14.09.2015: kl 12:00-21:00",59.931868,11.141794,http://valglokaler.no/valglokale/hovinhogda-skole/,2015-06-30
66457,Garderåsen skole,Akershus,Fet,"Garderåsveien 202, 1900 Fetsund","13.09.2015: kl 16:00-20:00, 14.09.2015: kl 12:00-21:00",59.942332,11.153647,http://valglokaler.no/valglokale/garderasen-skole/,2015-06-30
66458,Enebakkneset grendehus,Akershus,Fet,"Fetveien 2389, 1910 Enebakkneset","13.09.2015: kl 16:00-20:00, 14.09.2015: kl 12:00-21:00",59.786792,11.269596,http://valglokaler.no/valglokale/enebakkneset-grendehus/,2015-06-30
66459,Roven grendehus,Akershus,Fet,"Gml. Rovenvei 141, 1900 Fetsund","13.09.2015: kl 16:00-20:00, 14.09.2015: kl 12:00-21:00",59.939619,11.208423,http://valglokaler.no/valglokale/roven-grendehus/,2015-06-30
66461,Dalen skole,Akershus,Fet,"Kinnveien 56, 1903 Gan","13.09.2015: kl 16:00-20:00, 14.09.2015: kl 12:00-21:00",59.8768,11.218801,http://valglokaler.no/valglokale/dalen-skole/,2015-06-30
66462,Riddersand skole – Ridderhallen,Akershus,Fet,"Kirkeveien 139, 1900 Fetsund","13.09.2015: kl 16:00-20:00, 14.09.2015: kl 12:00-21:00",59.916954,11.169842,http://valglokaler.no/valglokale/riddersand-skole-ridderhallen/,2015-06-30
66463,Dyrløkkeåsen skole – hallen,Akershus,Frogn,"Hegreveien 12, 1448 Drøbak",14.09.2015: kl 09:00-21:00,59.667762,10.655365,http://valglokaler.no/valglokale/dyrlokkeasen-skole-hallen/,2015-06-30
66464,Dal skole – gymsalen,Akershus,Frogn,"Nesoddveien 207, 1455 Nordre Frogn",14.09.2015: kl 09:00-21:00,59.745229,10.697637,http://valglokaler.no/valglokale/dal-skole-gymsalen/,2015-06-30
66465,Sogsti skole – gymsalen,Akershus,Frogn,"Ekesvingen 30, 1446 Drøbak",14.09.2015: kl 09:00-21:00,59.65507,10.646245,http://valglokaler.no/valglokale/sogsti-skole-gymsalen/,2015-06-30
66466,Gymsalen v/biblioteket,Akershus,Frogn,"Torget 4, 1440 Drøbak",14.09.2015: kl 09:00-21:00,59.66359,10.628994,http://valglokaler.no/valglokale/gymsalen-vbiblioteket/,2015-06-30
66468,Heer skole – gymsalen,Akershus,Frogn,"Skanseveien 26, 1445 Drøbak",14.09.2015: kl 09:00-21:00,59.683103,10.662961,http://valglokaler.no/valglokale/heer-skole-gymsalen/,2015-06-30
66469,Gjerdrum kulturhus,Akershus,Gjerdrum,"Asktorvet 3, 2022 Gjerdrum","13.09.2015: kl 15:00-18:00, 14.09.2015: kl 10:00-21:00",60.072682,11.035489,http://valglokaler.no/valglokale/gjerdrum-kulturhus/,2015-06-30
66471,"Idrettshallen, Hurdal skole og kultursenter",Akershus,Hurdal,"Kvennstuvegen 5, 2090 Hurdal","13.09.2015: kl 16:00-18:00, 14.09.2015: kl 13:00-20:00",60.431985,11.068414,http://valglokaler.no/valglokale/idrettshallen-hurdal-skole-og-kultursenter/,2015-06-30
66474,Finstad skole,Akershus,Lørenskog,"Finstadrabben 148 B, 1475 Finstadjordet","13.09.2015: kl 15:00-18:00, 14.09.2015: kl 10:00-21:00",59.912805,10.965729,http://valglokaler.no/valglokale/finstad-skole-2/,2015-06-30
66475,Fjellhamar kirke,Akershus,Lørenskog,"Hanaborg alle11, 1472 Fjellhamar","13.09.2015: kl 15:00-18:00, 14.09.2015: kl 10:00-21:00",59.942632,10.979676,http://valglokaler.no/valglokale/fjellhamar-kirke/,2015-06-30
66476,Rasta skole,Akershus,Lørenskog,"Bjørndalsveien 1, 1476 Rasta","13.09.2015: kl 15:00-18:00, 14.09.2015: kl 10:00-21:00",59.92085,10.938735,http://valglokaler.no/valglokale/rasta-skole/,2015-06-30
66477,Kurland skole,Akershus,Lørenskog,"Sandbekkveien 111, 1479 Kurland","13.09.2015: kl 15:00-18:00, 14.09.2015: kl 10:00-21:00",59.934054,11.018214,http://valglokaler.no/valglokale/kurland-skole/,2015-06-30
66479,Løkenåsen skole,Akershus,Lørenskog,"Nordlifaret 41, 1473 Lørenskog","13.09.2015: kl 15:00-18:00, 14.09.2015: kl 10:00-21:00",59.922549,10.967832,http://valglokaler.no/valglokale/lokenasen-skole/,2015-06-30
66480,Kjenn skole,Akershus,Lørenskog,"Hasselveien 4, 1470 Lørenskog","13.09.2015: kl 15:00-18:00, 14.09.2015: kl 10:00-21:00",59.931065,10.95912,http://valglokaler.no/valglokale/kjenn-skole/,2015-06-30
66481,Fjellhamar skole,Akershus,Lørenskog,"Fjellhamarveien 55, 1472 Fjellhamar","13.09.2015: kl 15:00-18:00, 14.09.2015: kl 10:00-21:00",59.940181,10.985427,http://valglokaler.no/valglokale/fjellhamar-skole/,2015-06-30
66483,Preståsen skole,Akershus,Nannestad,"Preståsvegen 4, 2030 Nannestad","13.09.2015: kl 16:00-20:00, 14.09.2015: kl 11:00-20:00",60.224390,11.027811,http://valglokaler.no/valglokale/prestasen-skole/,2015-06-30
66485,Kringler-Slattum skole,Akershus,Nannestad,"Austaddalsvegen 32, 2033 Åsgreina","13.09.2015: kl 16:00-20:00, 14.09.2015: kl 11:00-20:00",60.171501,10.995280,http://valglokaler.no/valglokale/kringler-slattum-skole/,2015-06-30
66486,Eltonåsen skole,Akershus,Nannestad,"Willy Moes veg 4, 2034 Holter","13.09.2015: kl 16:00-20:00, 14.09.2015: kl 11:00-20:00",60.131164,11.015431,http://valglokaler.no/valglokale/eltonasen-skole/,2015-06-30
66489,Maura skole,Akershus,Nannestad,"Lauvåsvegen 2, 2032 Maura","13.09.2015: kl 16:00-20:00, 14.09.2015: kl 11:00-20:00",60.258125,11.040133,http://valglokaler.no/valglokale/maura-skole/,2015-06-30
66490,Nes kulturhus,Akershus,Nes,"Skolegata 10, 2150 Årnes","13.09.2015: kl 16:00-20:00, 14.09.2015: kl 10:00-21:00",60.121848,11.468341,http://valglokaler.no/valglokale/nes-kulturhus/,2015-06-30
66491,Østgård skole,Akershus,Nes,"Rakeievegen 288, 2150 Årnes","13.09.2015: kl 16:00-20:00, 14.09.2015: kl 10:00-21:00",60.11932,11.531285,http://valglokaler.no/valglokale/ostgard-skole/,2015-06-30
66492,Haga samfunnshus,Akershus,Nes,"Hagaplassen 15, 1929 Auli","13.09.2015: kl 16:00-20:00, 14.09.2015: kl 10:00-21:00",60.055422,11.384834,http://valglokaler.no/valglokale/haga-samfunnshus/,2015-06-30
66493,Auli skole,Akershus,Nes,"Lyngvegen, 1929 Auli","13.09.2015: kl 16:00-20:00, 14.09.2015: kl 10:00-21:00",60.033763,11.356426,http://valglokaler.no/valglokale/auli-skole/,2015-06-30
66494,Neskollenhallen,Akershus,Nes,"Melkevegen 19, 2165 Hvam","13.09.2015: kl 16:00-20:00, 14.09.2015: kl 10:00-21:00",60.125263,11.339046,http://valglokaler.no/valglokale/neskollenhallen/,2015-06-30
66495,Fjellfoten skole,Akershus,Nes,"Fjellfotvegen 17, 2150 Årnes","13.09.2015: kl 16:00-20:00, 14.09.2015: kl 10:00-21:00",60.093209,11.475299,http://valglokaler.no/valglokale/fjellfoten-skole/,2015-06-30
66496,Skogbygda skole,Akershus,Nes,"Skolevegen 1, 2164 Skogbygda","13.09.2015: kl 16:00-20:00, 14.09.2015: kl 10:00-21:00",60.228567,11.514925,http://valglokaler.no/valglokale/skogbygda-skole/,2015-06-30
66497,Fenstad skole,Akershus,Nes,"Knauserudvegen 9, 2170 Fenstad","13.09.2015: kl 16:00-20:00, 14.09.2015: kl 10:00-21:00",60.215209,11.399986,http://valglokaler.no/valglokale/fenstad-skole/,2015-06-30
66499,Tangen,Akershus,Nesodden,"Tangenten,Konglevn. 2, 1450 Nesoddtangen",14.09.2015: kl 09:00-21:00,59.855779,10.662272,http://valglokaler.no/valglokale/tangen/,2015-08-11
66500,Fjellstrand skole,Akershus,Nesodden,"Persilengvn. 5, 1458 Fjellstrand",14.09.2015: kl 09:00-21:00,59.796172,10.623559,http://valglokaler.no/valglokale/fjellstrand-skole/,2015-07-06
66501,Myklerud skole,Akershus,Nesodden,"Myklerudvn. 140, 1454 Fagerstrand",14.09.2015: kl 09:00-21:00,59.7462653,10.6129703,http://valglokaler.no/valglokale/myklerud-skole/,2015-06-30
66503,Alværn ungdomsskole,Akershus,Nesodden,"Blekslivn. 1, 1453 Bjørnemyr",14.09.2015: kl 09:00-21:00,59.821922,10.633389,http://valglokaler.no/valglokale/alvaern-ungdomsskole/,2015-06-30
66504,Jaer skole,Akershus,Nesodden,"Glennevn. 11, 1450 Nesoddtangen",14.09.2015: kl 09:00-21:00,59.790926,10.689649,http://valglokaler.no/valglokale/jaer-skole/,2015-06-30
66505,Berger skole,Akershus,Nesodden,"Kjartan Veldes vei 43, 1450 Nesoddtangen",14.09.2015: kl 09:00-21:00,59.8373832703,10.6766138077,http://valglokaler.no/valglokale/berger-skole/,2015-06-30
66507,Nittedal ungdomsskole,Akershus,Nittedal,"Stasjonsveien 10, 1482 Nittedal","13.09.2015: kl 16:00-21:00, 14.09.2015: kl 09:00-21:00",60.053254,10.878003,http://valglokaler.no/valglokale/nittedal-ungdomsskole/,2015-06-30
66508,Hakadalshallen,Akershus,Nittedal,"Sloraveien 7, 1488 Hakadal","13.09.2015: kl 16:00-21:00, 14.09.2015: kl 09:00-21:00",60.111846,10.850059,http://valglokaler.no/valglokale/hakadalshallen/,2015-06-30
66509,Lihallen,Akershus,Nittedal,"Birkelundsveien 68 A, 1481 Hagan","13.09.2015: kl 16:00-21:00, 14.09.2015: kl 09:00-21:00",60.007147,10.925010,http://valglokaler.no/valglokale/lihallen/,2015-06-30
66510,Hellerasten skole,Akershus,Oppegård,"Hareveien 42, 1413 Tårnåsen","13.09.2015: kl 16:00-20:00, 14.09.2015: kl 10:00-21:00",59.813746,10.814753,http://valglokaler.no/valglokale/hellerasten-skole/,2015-06-30
66511,Flåtestad skole,Akershus,Oppegård,"Harriet Backersvei 15, 1415 Oppegård","13.09.2015: kl 16:00-20:00, 14.09.2015: kl 10:00-21:00",59.771565,10.802498,http://valglokaler.no/valglokale/flatestad-skole/,2015-06-30
66513,Østli skole,Akershus,Oppegård,"Marens vei 9, 1415 Oppegård","13.09.2015: kl 16:00-20:00, 14.09.2015: kl 10:00-21:00",59.782302,10.806513,http://valglokaler.no/valglokale/ostli-skole/,2015-06-30
66514,Vassbonn skole,Akershus,Oppegård,"Chr. Sindings vei 55, 1410 Kolbotn","13.09.2015: kl 16:00-20:00, 14.09.2015: kl 10:00-21:00",59.812505,10.785227,http://valglokaler.no/valglokale/vassbonn-skole/,2015-06-30
66515,Solheim grendehus,Akershus,Oppegård,"Bekkenstenvn. 13, 1420 Svartskog","13.09.2015: kl 16:00-20:00, 14.09.2015: kl 10:00-21:00",59.781611,10.749328,http://valglokaler.no/valglokale/solheim-grendehus/,2015-06-30
66516,Kolbotn skole,Akershus,Oppegård,"Fjellveien 2 A, 1410 Kolbotn","13.09.2015: kl 16:00-20:00, 14.09.2015: kl 10:00-21:00",59.813314,10.804861,http://valglokaler.no/valglokale/kolbotn-skole/,2015-06-30
66517,Sofiemyr skole,Akershus,Oppegård,"Holbergs vei 37, 1412 Sofiemyr","13.09.2015: kl 16:00-20:00, 14.09.2015: kl 10:00-21:00",59.797947,10.814989,http://valglokaler.no/valglokale/sofiemyr-skole/,2015-06-30
66519,Blystadlia skole og barnehage,Akershus,Rælingen,"Ulvefaret 32, 2014 Blystadlia","13.09.2015: kl 13:00-18:00, 14.09.2015: kl 12:00-20:00",59.931251,11.041324,http://valglokaler.no/valglokale/blystadlia-skole-og-barnehage/,2015-06-30
66520,Rud skole,Akershus,Rælingen,"Skolevegen 22, 2005 Rælingen","13.09.2015: kl 13:00-18:00, 14.09.2015: kl 12:00-20:00",59.945614,11.04303,http://valglokaler.no/valglokale/rud-skole/,2015-06-30
66521,Løvenstad skole,Akershus,Rælingen,"Løvenstadvegen 7, 2006 Løvenstad","13.09.2015: kl 13:00-18:00, 14.09.2015: kl 12:00-20:00",59.936620,11.027846,http://valglokaler.no/valglokale/lovenstad-skole/,2015-07-03
66522,Fjerdingby skole,Akershus,Rælingen,"Haugerveien 27, 2008 Fjerdingby","13.09.2015: kl 13:00-18:00, 14.09.2015: kl 12:00-20:00",59.923743,11.068897,http://valglokaler.no/valglokale/fjerdingby-skole/,2015-06-30
66523,Nordby skole,Akershus,Rælingen,"Tomterstien 33, 2009 Nordby","13.09.2015: kl 13:00-18:00, 14.09.2015: kl 12:00-20:00",59.865569,11.09418,http://valglokaler.no/valglokale/nordby-skole/,2015-06-30
66525,Volla skole,Akershus,Skedsmo,"Nittedalsgata 59, 2000 Lillestrøm",14.09.2015: kl 09:00-21:00,59.958664,11.040824,http://valglokaler.no/valglokale/volla-skole/,2015-06-30
66527,Skedsmo rådhus,Akershus,Skedsmo,"Jonas Lies gate 18, 2000 Lillestrøm",14.09.2015: kl 09:00-21:00,59.954699,11.039522,http://valglokaler.no/valglokale/skedsmo-radhus/,2015-06-30
66528,Vigernes skole,Akershus,Skedsmo,"Vigernesgata, 2004 Lillestrøm",14.09.2015: kl 09:00-21:00,59.955977,11.071837,http://valglokaler.no/valglokale/vigernes-skole/,2015-06-30
66529,Sten-Tærud skole,Akershus,Skedsmo,"Gjoleidveien 21, 2019 Skedsmokorset",14.09.2015: kl 09:00-21:00,59.996948,11.040316,http://valglokaler.no/valglokale/sten-taerud-skole/,2015-06-30
66530,Brånås skole,Akershus,Skedsmo,"Brånåsveien 42, 2019 Skedsmokorset",14.09.2015: kl 09:00-21:00,59.999158,11.02272,http://valglokaler.no/valglokale/branas-skole/,2015-06-30
66531,Stav skole,Akershus,Skedsmo,"Øvre Ryensvei 46, 2013 Skjetten",14.09.2015: kl 09:00-21:00,59.964119,10.999632,http://valglokaler.no/valglokale/stav-skole/,2015-06-30
66532,Gjellerås skole,Akershus,Skedsmo,"Karisveien 18, 2013 Skjetten",14.09.2015: kl 09:00-21:00,59.966053,11.00087,http://valglokaler.no/valglokale/gjelleras-skole/,2015-06-30
66533,Strømmen bibliotek,Akershus,Skedsmo,"Støperiveien 28, 2010 Strømmen",14.09.2015: kl 09:00-21:00,59.948316,11.009872,http://valglokaler.no/valglokale/strommen-bibliotek/,2015-06-30
66534,Asak skole,Akershus,Skedsmo,"Branderudveien 91, 2015 Leirsund",14.09.2015: kl 09:00-21:00,59.995467,11.108208,http://valglokaler.no/valglokale/asak-skole/,2015-06-30
66535,Samfunnshuset på Skedsmokorset,Akershus,Skedsmo,"Furuveien 1, 2020 Skedsmokorset",14.09.2015: kl 09:00-21:00,60.001454,11.040187,http://valglokaler.no/valglokale/samfunnshuset-pa-skedsmokorset/,2015-06-30
66536,Langhus skole,Akershus,Ski,"Bøhlerveien 4, 1405 Langhus","13.09.2015: kl 16:00-20:00, 14.09.2015: kl 09:00-21:00",59.747098,10.839424,http://valglokaler.no/valglokale/langhus-skole/,2015-06-30
66537,Ski skole,Akershus,Ski,"Kirkevegen 21, 1400 Ski","13.09.2015: kl 16:00-20:00, 14.09.2015: kl 09:00-21:00",59.721254,10.845577,http://valglokaler.no/valglokale/ski-skole/,2015-06-30
66538,Vevelstadåsen skole,Akershus,Ski,"Vevelstadåsen 30, 1405 Langhus","13.09.2015: kl 16:00-20:00, 14.09.2015: kl 09:00-21:00",59.757249,10.848366,http://valglokaler.no/valglokale/vevelstadasen-skole/,2015-06-30
66539,Bøleråsen skole,Akershus,Ski,"Bølerkollen 2, 1405 Langhus","13.09.2015: kl 16:00-20:00, 14.09.2015: kl 09:00-21:00",59.764809,10.855576,http://valglokaler.no/valglokale/bolerasen-skole/,2015-06-30
66540,Hebekk skole,Akershus,Ski,"Sørjordet 7, 1400 Ski","13.09.2015: kl 16:00-20:00, 14.09.2015: kl 09:00-21:00",59.724781,10.833423,http://valglokaler.no/valglokale/hebekk-skole/,2015-06-30
66542,Finstad skole,Akershus,Ski,"Markveien 24, 1406 Ski","13.09.2015: kl 16:00-20:00, 14.09.2015: kl 09:00-21:00",59.715628,10.821759,http://valglokaler.no/valglokale/finstad-skole-3/,2015-06-30
66543,Kråkstadhallen,Akershus,Ski,"Kråkstadveien 134, 1408 Kråkstad","13.09.2015: kl 16:00-20:00, 14.09.2015: kl 09:00-21:00",59.677677,10.885029,http://valglokaler.no/valglokale/krakstadhallen/,2015-06-30
66545,Siggerudhallen,Akershus,Ski,"Gamle Siggerudvei 4, 1404 Siggerud","13.09.2015: kl 16:00-20:00, 14.09.2015: kl 09:00-21:00",59.790040,10.887160,http://valglokaler.no/valglokale/siggerudhallen/,2015-06-30
66546,Fjuk skole,Akershus,Sørum,"Skåningsrudvegen 1, 1925 Blaker","13.09.2015: kl 16:00-20:00, 14.09.2015: kl 10:00-21:00",59.991039,11.371031,http://valglokaler.no/valglokale/fjuk-skole/,2015-06-30
66547,Bingsfoss ungdomsskole,Akershus,Sørum,"Vendom 8, 1920 Sørumsand","13.09.2015: kl 16:00-20:00, 14.09.2015: kl 10:00-21:00",59.988046,11.251983,http://valglokaler.no/valglokale/bingsfoss-ungdomsskole/,2015-06-30
66548,Sørum skole,Akershus,Sørum,"Bingenvegen 2-4, 1923 Sørum","13.09.2015: kl 16:00-20:00, 14.09.2015: kl 10:00-21:00",60.010409,11.237029,http://valglokaler.no/valglokale/sorum-skole/,2015-06-30
66549,Haugtun skole,Akershus,Sørum,"Toreidvegen 19, 1925 Blaker","13.09.2015: kl 16:00-20:00, 14.09.2015: kl 10:00-21:00",60.000442,11.317017,http://valglokaler.no/valglokale/haugtun-skole/,2015-06-30
66550,Vesterskaun skole,Akershus,Sørum,"Vilbergvegen 3, 2016 Frogner","13.09.2015: kl 16:00-20:00, 14.09.2015: kl 10:00-21:00",60.021151,11.165882,http://valglokaler.no/valglokale/vesterskaun-skole/,2015-06-30
66552,Melvold ungdomsskole,Akershus,Sørum,"Trondheimsvegen 376, 2016 Frogner","13.09.2015: kl 16:00-20:00, 14.09.2015: kl 10:00-21:00",60.025985,11.105360,http://valglokaler.no/valglokale/melvold-ungdomsskole/,2015-06-30
66555,Mogreina skole,Akershus,Ullensaker,2054 Mogreina,"13.09.2015: kl 15:00-20:00, 14.09.2015: kl 10:00-20:00",60.228668,11.16609,http://valglokaler.no/valglokale/mogreina-skole/,2015-07-03
66557,Hovin skole,Akershus,Ullensaker,"Krokfossvegen, 2067 Jessheim","13.09.2015: kl 15:00-20:00, 14.09.2015: kl 10:00-20:00",60.147556,11.127734,http://valglokaler.no/valglokale/hovin-skole/,2015-07-03
66558,Alfhallen,Akershus,Ullensaker,2040 Kløfta,"13.09.2015: kl 15:00-20:00, 14.09.2015: kl 10:00-20:00",60.09912,11.21806,http://valglokaler.no/valglokale/alfhallen/,2015-07-03
66559,Ullensaker rådhus,Akershus,Ullensaker,"Furusethgata 12, 2050 Jessheim","13.09.2015: kl 15:00-20:00, 14.09.2015: kl 10:00-20:00",60.143647,11.174705,http://valglokaler.no/valglokale/ullensaker-radhus/,2015-07-03
66560,Skogmo skole,Akershus,Ullensaker,"Gamle Algarheimsveg 200, 2052 Jessheim","13.09.2015: kl 15:00-20:00, 14.09.2015: kl 10:00-20:00",60.137386,11.200476,http://valglokaler.no/valglokale/skogmo-skole/,2015-07-03
66561,Nordkisa skole,Akershus,Ullensaker,"Anna Willersruds veg 12, 2055 Nordkisa","13.09.2015: kl 15:00-20:00, 14.09.2015: kl 10:00-20:00",60.189788,11.259184,http://valglokaler.no/valglokale/nordkisa-skole/,2015-07-03
66562,Algarheim skole,Akershus,Ullensaker,"Skolevegen 20, 2056 Algarheim","13.09.2015: kl 15:00-20:00, 14.09.2015: kl 10:00-20:00",60.144512,11.250794,http://valglokaler.no/valglokale/algarheim-skole/,2015-07-03
66563,Åreppen skole,Akershus,Ullensaker,"Trondheimsvegen 139, 2040 Kløfta","13.09.2015: kl 15:00-20:00, 14.09.2015: kl 10:00-20:00",60.085928,11.133549,http://valglokaler.no/valglokale/areppen-skole/,2015-07-03
66564,Grevlingen Flerbrukshall,Akershus,Vestby,"Sonsveien 55, 1555 Son","13.09.2015: kl 16:00-20:00, 14.09.2015: kl 09:00-21:00",59.518691,10.701284,http://valglokaler.no/valglokale/grevlingen-flerbrukshall/,2015-06-30
66565,Brevik skole og Grendesenter,Akershus,Vestby,"Falkeveien 24, 1555 Son","13.09.2015: kl 16:00-20:00, 14.09.2015: kl 09:00-21:00",59.505932,10.691071,http://valglokaler.no/valglokale/brevik-skole-og-grendesenter/,2015-06-30
66567,Risil Ungdomsskole,Akershus,Vestby,"Risilveien 85, 1540 Vestby","13.09.2015: kl 16:00-20:00, 14.09.2015: kl 09:00-21:00",59.601573,10.714588,http://valglokaler.no/valglokale/risil-ungdomsskole/,2015-06-30
66568,Vestby rådhus,Akershus,Vestby,"Rådhusgaten 1, 1540 Vestby","13.09.2015: kl 16:00-20:00, 14.09.2015: kl 09:00-21:00",59.601693,10.748089,http://valglokaler.no/valglokale/vestby-radhus/,2015-06-30
66569,Alvdal samfunnshus,Hedmark,Alvdal,2560 Alvdal,14.09.2015: kl 12:00-19:00,62.103601,10.637533,http://valglokaler.no/valglokale/alvdal-samfunnshus/,2015-06-30
66570,Sølnaslottet,Hedmark,Alvdal,2560 Alvdal,14.09.2015: kl 12:00-18:00,62.120684,10.560478,http://valglokaler.no/valglokale/solnaslottet/,2015-06-30
66571,Strandbu,Hedmark,Alvdal,2560 Alvdal,14.09.2015: kl 14:00-18:00,62.028916,10.784916,http://valglokaler.no/valglokale/strandbu/,2015-06-30
66573,Basheim,Hedmark,Alvdal,2560 Alvdal,14.09.2015: kl 12:00-18:00,62.202810,10.626614,http://valglokaler.no/valglokale/basheim/,2015-06-30
66574,Deset grendehus,Hedmark,Åmot,"Deset, 2450 Rena",14.09.2015: kl 09:00-14:00,61.30173736,11.46301850,http://valglokaler.no/valglokale/deset-grendehus/,2015-06-30
66576,Osvang samfunnshus,Hedmark,Åmot,2460 Osen,"13.09.2015: kl 15:00-18:00, 14.09.2015: kl 09:00-18:00",61.30231393,11.76593005,http://valglokaler.no/valglokale/osvang-samfunnshus/,2015-06-30
66577,Åmot kulturhus,Hedmark,Åmot,"Torget 1, 2450 Rena","13.09.2015: kl 15:00-20:00, 14.09.2015: kl 09:00-20:00",61.13210720,11.37334678,http://valglokaler.no/valglokale/amot-kulturhus/,2015-06-30
66578,Kilen skole,Hedmark,Åsnes,2283 Åsnes Finnskog,14.09.2015: kl 09:00-20:00,60.665,12.210,http://valglokaler.no/valglokale/kilen-skole/,2015-06-30
66580,Sønsterud skole,Hedmark,Åsnes,2280 Gjesåsen,14.09.2015: kl 09:00-20:00,60.6630126,12.07006449,http://valglokaler.no/valglokale/sonsterud-skole/,2015-06-30
66581,Åsnes rådhus,Hedmark,Åsnes,"Rådhusgata 1, 2270 Flisa",14.09.2015: kl 09:00-20:00,60.61399244,12.01153434,http://valglokaler.no/valglokale/asnes-radhus/,2015-06-30
66582,Åsnes opplæringssenter,Hedmark,Åsnes,2266 Arneberg,14.09.2015: kl 09:00-20:00,60.57732789,12.05111495,http://valglokaler.no/valglokale/asnes-opplaeringssenter/,2015-06-30
66583,Jara skole,Hedmark,Åsnes,2266 Arneberg,14.09.2015: kl 09:00-20:00,60.55392393,12.00431611,http://valglokaler.no/valglokale/jara-skole/,2015-06-30
66584,Vestmarka Samfunnshus,Hedmark,Eidskog,"Skillingmarkvegen 110, 2233 Vestmarka",14.09.2015: kl 12:00-20:00,59.926334,11.993196,http://valglokaler.no/valglokale/vestmarka-samfunnshus/,2015-06-30
66585,Tollefsbøl tidl. skole,Hedmark,Eidskog,"Tollefsbølvegen 39, 2232 Tobøl",14.09.2015: kl 12:00-20:00,59.972467,12.060913,http://valglokaler.no/valglokale/tollefsbol-tidl-skole/,2015-06-30
66586,Eidskog rådhus,Hedmark,Eidskog,"Rådhusvegen 7, 2230 Skotterud",14.09.2015: kl 10:00-21:00,59.985583,12.124645,http://valglokaler.no/valglokale/eidskog-radhus/,2015-06-30
66587,Magnor skole,Hedmark,Eidskog,"Skolevegen 86, 2240 Magnor",14.09.2015: kl 11:00-20:00,59.945479,12.171595,http://valglokaler.no/valglokale/magnor-skole/,2015-06-30
66589,Åbogen Bygdehus,Hedmark,Eidskog,"Svalevegen 5, 2220 Åbogen",14.09.2015: kl 12:00-20:00,60.114830,12.116536,http://valglokaler.no/valglokale/abogen-bygdehus/,2015-06-30
66590,Nevjen Grendehus,Hedmark,Eidskog,"Nessjøvegen 221, 2240 Magnor",14.09.2015: kl 12:00-20:00,59.969312,12.226629,http://valglokaler.no/valglokale/nevjen-grendehus/,2015-06-30
66591,Kirkestuen,Hedmark,Eidskog,"Matrandvegen 539, 2235 Matrand",14.09.2015: kl 12:00-20:00,60.030120,12.124223,http://valglokaler.no/valglokale/kirkestuen/,2015-06-30
66592,Bjølset grendehus,Hedmark,Elverum,"Vestsivegen 1628, 2411 Elverum",14.09.2015: kl 14:00-19:00,60.79189529,11.6947497,http://valglokaler.no/valglokale/bjolset-grendehus/,2015-06-30
66593,Langenga forsamlingslokale,Hedmark,Elverum,"Strandbygdvegen 866, 2411 Elverum",14.09.2015: kl 14:00-19:00,60.95095001,11.50483055,http://valglokaler.no/valglokale/langenga-forsamlingslokale/,2015-06-30
66594,Norvang,Hedmark,Elverum,"Hernesvegen 311, 2410 Hernes","13.09.2015: kl 14:00-18:00, 14.09.2015: kl 14:00-19:00",60.9260813,11.63565509,http://valglokaler.no/valglokale/norvang/,2015-06-30
66595,Skogvang,Hedmark,Elverum,"Julusdalsvegen 515, 2410 Hernes",14.09.2015: kl 14:00-19:00,61.03295279,11.72130555,http://valglokaler.no/valglokale/skogvang/,2015-06-30
66596,Vestsiden grendehus,Hedmark,Elverum,"Vestsiveien 806, 2411 Elverum",14.09.2015: kl 14:00-19:00,60.82383382,11.60788995,http://valglokaler.no/valglokale/vestsiden-grendehus/,2015-06-30
66597,Jømnvang,Hedmark,Elverum,"Kverndalsvegen 23, 2416 Jømna",14.09.2015: kl 14:00-19:00,60.80708611,11.70522039,http://valglokaler.no/valglokale/jomnvang/,2015-06-30
66598,Bergheim skolehus,Hedmark,Elverum,"Bergeberget 159, 2410 Hernes",14.09.2015: kl 14:00-19:00,61.00727031,11.78771671,http://valglokaler.no/valglokale/bergheim-skolehus/,2015-06-30
66599,Vestad skole,Hedmark,Elverum,"Grønvegen 16, 2406 Elverum","13.09.2015: kl 14:00-18:00, 14.09.2015: kl 09:00-21:00",60.88636687,11.53941873,http://valglokaler.no/valglokale/vestad-skole/,2015-06-30
66600,Sørskogbygda samfunnshus,Hedmark,Elverum,"Sørskogbygdvegen 632, 2412 Sørskogbygda","13.09.2015: kl 14:00-18:00, 14.09.2015: kl 14:00-19:00",60.94283934,11.77736988,http://valglokaler.no/valglokale/sorskogbygda-samfunnshus/,2015-06-30
66601,Kynnberget grendehus,Hedmark,Elverum,"Sørskogbygdvegen 1145, 2412 Sørskogbygda",14.09.2015: kl 14:00-19:00,60.95035834,11.85352778,http://valglokaler.no/valglokale/kynnberget-grendehus/,2015-06-30
66602,Øksna- Rustad Vel,Hedmark,Elverum,"Trondheimsvegen 1700, 2411 Elverum",14.09.2015: kl 14:00-19:00,61.01275985,11.39602479,http://valglokaler.no/valglokale/oksna-rustad-vel/,2015-06-30
66603,Elverumshallen,Hedmark,Elverum,"Torggta 18, 2408 Elverum","13.09.2015: kl 14:00-18:00, 14.09.2015: kl 09:00-21:00",60.8857536,11.55996726,http://valglokaler.no/valglokale/elverumshallen/,2015-06-30
66604,Heradstun,Hedmark,Elverum,"Solørvegen 889, 2415 Heradsbygd","13.09.2015: kl 14:00-18:00, 14.09.2015: kl 14:00-19:00",60.82148436,11.64107049,http://valglokaler.no/valglokale/heradstun/,2015-06-30
66606,Høyvang,Hedmark,Elverum,"Sørskogbygdvegen 1882, 2412 Sørskogbygda",14.09.2015: kl 14:00-19:00,60.91351477,11.95826197,http://valglokaler.no/valglokale/hoyvang/,2015-06-30
66607,Kirkeby skole,Hedmark,Elverum,"Nordskogbygdvegen 473, 2410 Hernes",14.09.2015: kl 14:00-19:00,60.99153334,11.69668611,http://valglokaler.no/valglokale/kirkeby-skole/,2015-06-30
66608,Tune,Hedmark,Engerdal,"Sundveien 900, 2440 Engerdal",14.09.2015: kl 10:00-17:00,61.8267936707,11.7195196152,http://valglokaler.no/valglokale/tune/,2015-06-30
66611,Kommunehuset Enger,Hedmark,Engerdal,"Engerdalsveien 1794, 2440 Engerdal","13.09.2015: kl 14:00-20:00, 14.09.2015: kl 10:00-17:00",61.758322,11.959863,http://valglokaler.no/valglokale/kommunehuset-enger/,2015-06-30
66612,Fjellvang,Hedmark,Engerdal,"Moalia 9, 2443 Drevsjø",14.09.2015: kl 10:00-17:00,61.8905601501,12.0324821472,http://valglokaler.no/valglokale/fjellvang/,2015-06-30
66613,Elgå samfunnhus,Hedmark,Engerdal,"Femundveien 3639, 2446 Elgå",14.09.2015: kl 10:00-17:00,62.1653327942,11.9445447922,http://valglokaler.no/valglokale/elga-samfunnhus/,2015-06-30
66614,Skogtun,Hedmark,Engerdal,"Langsjøveien 5, 2448 Sømådal",14.09.2015: kl 10:00-17:00,62.0969085693,11.6507349014,http://valglokaler.no/valglokale/skogtun/,2015-06-30
66615,Folldal Flerbrukshus,Hedmark,Folldal,"Folldalsvegen 2793, 2580 Folldal","13.09.2015: kl 13:00-16:00, 14.09.2015: kl 09:00-18:00",62.13271,9.98539,http://valglokaler.no/valglokale/folldal-flerbrukshus/,2015-06-30
66617,Grinder skole – samfunnssalen,Hedmark,Grue,2264 Grinder,"13.09.2015: kl 15:00-18:00, 14.09.2015: kl 12:00-18:00",60.4037,12.0439,http://valglokaler.no/valglokale/grinder-skole-samfunnssalen/,2015-06-30
66618,Namnå barnehage – samfunnssalen,Hedmark,Grue,2265 Namnå,"13.09.2015: kl 15:00-18:00, 14.09.2015: kl 12:00-18:00",60.4995,12.0745,http://valglokaler.no/valglokale/namna-barnehage-samfunnssalen/,2015-06-30
66621,Grue rådhus,Hedmark,Grue,2260 Kirkenær,"13.09.2015: kl 15:00-18:00, 14.09.2015: kl 12:00-20:00",60.4516,12.0551,http://valglokaler.no/valglokale/grue-radhus/,2015-06-30
66622,Refset skole – samfunnssalen,Hedmark,Grue,2260 Kirkenær,"13.09.2015: kl 15:00-18:00, 14.09.2015: kl 12:00-18:00",60.4675,12.0134,http://valglokaler.no/valglokale/refset-skole-samfunnssalen/,2015-06-30
66623,Svullrya skole,Hedmark,Grue,2256 Grue Finnskog,"13.09.2015: kl 15:00-18:00, 14.09.2015: kl 12:00-18:00",60.4213,12.3978,http://valglokaler.no/valglokale/svullrya-skole/,2015-06-30
66626,Storhamar skole,Hedmark,Hamar,"Fredrik Monsens gate 52, 2315 Hamar",14.09.2015: kl 09:00-21:00,60.801239,11.051226,http://valglokaler.no/valglokale/storhamar-skole/,2015-06-30
66629,Ajer ungdomsskole,Hedmark,Hamar,"Ringgata 233, 2316 Hamar",14.09.2015: kl 09:00-21:00,60.805528,11.057233,http://valglokaler.no/valglokale/ajer-ungdomsskole/,2015-06-30
66631,Lovisenberg skole,Hedmark,Hamar,"Frogervegen 105, 2322 Ridabu",14.09.2015: kl 09:00-21:00,60.795615,11.165578,http://valglokaler.no/valglokale/lovisenberg-skole/,2015-06-30
66633,Hamar rådhus,Hedmark,Hamar,"Vangsvegen 51, 2317 Hamar",14.09.2015: kl 09:00-21:00,60.794502,11.078704,http://valglokaler.no/valglokale/hamar-radhus/,2015-06-30
66634,Lunden skole,Hedmark,Hamar,"Midtvangvegen 575, 2324 Vang på Hedmark",14.09.2015: kl 09:00-21:00,60.838491,11.197125,http://valglokaler.no/valglokale/lunden-skole/,2015-06-30
